id,name,age,latitude,longitude,monthly_income,experienced
1,Kendra,45,40.71667,19.56667,5132,false
2,Dorthea,98,50.2202953,18.7801585,19842,false
3,Link,34,55.3377048,59.6818456,6352,false
4,Francesco,50,39.377733,99.819316,15165,true
5,Pancho,43,42.4572478,18.5314753,10018,false
6,Jarib,62,44.8501354,-0.5702805,16844,true
7,Lexis,80,0.5128922,-77.2864879,3839,false
8,Merv,24,-7.3708505,112.4440473,9027,false
9,Audi,63,45.48338,-71.66577,16667,true
